State,City,Lat,Lon,3/17/20,3/18/20,3/19/20,3/20/20,3/21/20,3/22/20,3/23/20,3/24/20,3/25/20,3/26/20,3/27/20,3/28/20,3/29/20,3/30/20,3/31/20,4/1/20,4/2/20,4/3/20
CA,Brentwood,34.06626,-118.47033,0,1,13,16,18,23,27,31,34,42,30,31,33,34,36,39,42,44
CA,West Hollywood,34.09069,-118.37053,5,8,12,15,18,19,23,31,31,35,42,50,52,53,56,64,68,73
CA,Long Beach,33.76672,-118.1924,5,8,12,14,15,15,19,28,41,54,70,88,99,106,123,139,139,171
CA,Melrose,34.08366,-118.35515,2,9,11,11,12,17,19,26,33,47,49,56,71,82,100,104,113,121
CA,Encino,34.16536,-118.52706,3,5,6,8,10,10,10,12,13,21,23,26,27,29,30,32,33,35
CA,Hollywood,34.10156,-118.33708,0,0,5,7,12,12,14,19,23,27,30,38,44,49,61,67,71,73
CA,Manhattan Beach,33.8872,-118.41086,3,4,5,6,7,7,9,11,17,21,22,23,27,31,40,41,43,45
CA,Pacific Palisades,34.04709,-118.52679,0,0,5,6,7,7,8,9,9,12,10,11,15,18,22,23,24,25
CA,Sherman Oaks,34.15106,-118.44434,2,2,5,6,7,7,8,10,12,17,21,25,27,32,33,37,43,46
CA,Tarzana,34.17529,-118.5501,5,5,5,6,7,8,8,9,9,14,17,19,23,24,26,29,29,30
CA,Beverly Hills,34.07346,-118.40032,1,1,4,5,7,8,12,12,13,15,21,21,24,28,35,39,45,53
CA,Boyle Heights,34.04004,-118.2105,5,5,5,5,5,5,5,5,5,7,8,8,10,11,11,15,20,28
CA,Lomita,33.80528,-118.3199,0,0,5,5,7,8,8,9,9,12,#N/A,1,1,1,1,1,1,6
CA,North Hollywood,34.16982,-118.37899,0,1,3,5,5,5,9,10,11,15,18,26,30,34,39,45,57,67
CA,Westwood,34.06168,-118.44545,0,0,2,5,5,5,6,6,9,11,16,17,22,26,28,26,25,27
CA,Century City,34.05944,-118.41281,0,0,5,4,4,4,4,6,7,9,6,8,8,9,13,17,17,19
CA,Culver City,34.02161,-118.39621,2,2,3,4,4,4,5,7,6,8,6,7,9,14,15,17,19,20
CA,Glendale,34.14633,-118.24864,2,3,4,4,5,6,9,10,12,23,29,36,46,62,76,86,93,103
CA,Granada Hills,34.26394,-118.49794,3,3,4,4,4,4,5,5,7,8,8,8,8,9,10,14,19,21
CA,Park La Brea,34.06256,-118.35763,0,0,3,4,4,4,6,8,8,8,1,1,1,1,1,5,6,6
CA,Santa Clarita,34.39259,-118.57305,3,3,3,4,4,4,7,7,10,16,24,32,38,41,48,50,65,78
CA,Santa Monica,34.01158,-118.49227,1,1,2,4,5,7,12,16,18,21,28,38,41,47,49,53,56,62
CA,Venice,33.98754,-118.47215,1,2,4,4,6,7,7,8,9,11,11,13,17,18,18,18,20,20
CA,Woodland Hills,34.166022,-118.608749,0,2,3,4,5,5,7,8,11,13,14,18,19,22,25,29,33,36
CA,Alhambra,34.0937,-118.12727,2,1,2,3,3,3,4,5,6,8,8,10,10,11,13,13,15,17
CA,Carson,33.83161,-118.26209,1,1,1,3,3,4,6,8,9,21,21,26,28,35,39,44,55,63
CA,La Mirada,33.90853,-118.01173,2,3,3,3,3,3,3,3,4,5,5,6,7,7,8,9,11,11
CA,Lancaster,34.685194,-118.15755,0,0,0,3,3,4,7,8,13,16,18,19,23,27,31,32,33,38
CA,Mar Vista,34.00468,-118.42913,0,1,1,3,4,5,6,6,6,8,8,8,9,13,13,18,21,23
CA,Studio City,34.14453,-118.39561,0,0,3,3,4,4,7,7,7,11,10,10,14,15,18,19,19,19
CA,Valley Glen,34.18693,-118.41381,0,0,1,3,6,6,7,9,11,12,2,3,4,4,7,8,11,12
CA,West Hills,34.20036,-118.62933,3,3,3,3,4,4,4,4,4,4,5,5,6,7,10,10,11,12
CA,West Los Angeles,34.04647,-118.43395,0,0,2,3,3,3,4,4,4,5,9,13,18,19,20,22,24,25
CA,Westchester,33.95973,-118.41369,1,2,3,3,3,3,3,3,5,7,8,12,17,17,17,18,18,22
CA,Altadena,34.190105,-118.132206,0,0,0,2,3,3,5,5,5,6,9,10,10,10,12,14,16,16
CA,Arcadia,34.13614,-118.03887,1,1,2,2,2,2,3,4,4,6,6,8,9,9,10,12,12,13
CA,Beverlywood,34.05138,-118.40133,0,0,2,2,5,6,7,7,8,10,8,10,11,11,13,15,15,16
CA,Diamond Bar,34.00086,-117.82907,2,2,2,2,2,2,2,2,2,2,2,2,3,3,3,6,7,8
CA,Hancock Park,34.06892,-118.33255,0,0,2,2,4,5,6,7,8,10,14,17,18,26,30,33,34,33
CA,Hawthorne,33.91819,-118.35374,0,0,1,2,2,2,3,6,8,9,7,11,11,13,19,22,26,30
CA,Hollywood Hills,34.118184,-118.3521,0,0,2,2,2,5,7,8,8,17,19,23,24,26,29,32,34,36
CA,Inglewood,33.96178,-118.35674,2,1,2,2,2,3,3,5,5,12,12,14,20,26,31,37,44,55
CA,Monterey Park,34.05979,-118.12651,0,1,2,2,3,3,3,3,4,4,4,5,5,5,7,9,11,12
CA,Pasadena,34.14745,-118.14427,2,2,2,2,3,3,3,6,7,10,10,10,10,25,25,33,43,53
CA,Reseda,34.19384,-118.54754,0,0,1,2,3,2,3,4,5,8,8,11,13,20,20,20,21,25
CA,Santa Monica Mountains,34.12028,-118.93176,0,0,2,2,3,2,2,2,3,4,#N/A,#N/A,#N/A,#N/A,#N/A,1,1,1-4
CA,South Pasadena,34.1158,-118.15213,1,1,1,2,2,3,3,3,3,4,3,3,5,5,6,7,7,7
CA,Torrance,33.83705,-118.34312,2,1,2,2,2,3,4,5,9,14,21,32,34,43,53,63,69,76
CA,Walnut,34.02693,-117.8405,0,0,1,2,1,1,1,1,1,1,1,2,3,3,3,4,4,6
CA,Whittier,33.97542,-118.03407,0,0,2,2,2,2,2,3,3,3,4,6,8,8,12,15,16,16
CA,Baldwin Hills,34.02157,-118.36765,0,1,1,1,2,3,3,3,3,4,5,7,9,9,11,13,13,14
CA,Burbank,34.18182,-118.30776,0,0,1,1,1,2,2,2,3,6,7,17,19,21,27,39,41,50
CA,Calabasas,34.15778,-118.63842,0,0,1,1,1,2,3,4,4,5,7,10,10,11,13,13,13,16
CA,Castaic,34.49538,-118.62484,0,0,1,1,1,1,1,2,2,2,3,4,4,3,3,3,4,4
CA,Covina,34.08743,-117.88991,0,0,1,1,1,1,1,3,3,4,3,3,6,8,7,9,11,11
CA,Crestview,34.046953,-118.381232,0,0,1,1,4,5,6,7,7,9,7,9,11,13,13,15,17,20
CA,Downtown,34.041218,-118.247121,0,0,0,1,1,1,2,3,6,7,8,9,10,11,14,15,15,17
CA,Eagle Rock,34.13927,-118.21087,0,1,1,1,1,1,2,2,2,3,4,8,8,8,10,11,13,14
CA,East Los Angeles,34.03347,-118.15909,0,0,1,1,1,2,2,3,3,4,6,8,9,11,14,16,23,28
CA,Echo Park,34.07609,-118.25581,0,0,1,1,1,1,2,2,4,7,1,1,1,5,5,6,6,8
CA,El Segundo,33.916722,-118.39768,0,0,0,1,2,1,1,2,2,2,1,1,1,1,1,1,1,5
CA,Gardena,33.88379,-118.30702,1,1,1,1,1,1,1,1,1,4,5,6,6,7,12,14,17,20
CA,Koreatown,34.05779,-118.30091,1,1,1,1,1,2,3,5,5,7,7,10,10,13,14,18,21,26
CA,Lake Balboa,34.201013,-118.501168,0,0,0,1,1,1,2,2,2,3,3,6,8,11,11,14,16,19
CA,Lakewood,33.853384,-118.134851,0,0,0,1,1,1,1,3,4,7,8,11,12,13,16,18,21,24
CA,Lawndale,33.89862,-118.35385,0,0,1,1,1,1,2,2,1,2,2,3,4,4,6,7,8,10
CA,Lynwood,33.925424,-118.200528,0,1,1,1,1,2,2,2,3,6,8,13,14,16,18,20,21,23
CA,Miracle Mile,34.059527,-118.350179,0,0,0,1,1,4,5,7,8,13,7,8,9,10,12,12,12,13
CA,Northridge,34.23503,-118.53386,1,1,1,1,1,1,1,2,2,4,7,8,8,8,9,12,14,17
CA,Palms,34.01986,-118.42096,0,0,1,1,1,1,2,6,8,10,12,15,20,21,25,27,28,33
CA,Playa Vista,33.97395,-118.43038,0,0,1,1,2,2,3,4,5,8,5,5,5,5,7,7,7,8
CA,Redondo Beach,33.84757,-118.388255,0,0,0,1,2,4,5,7,9,20,23,24,29,34,39,50,54,60
CA,San Dimas,34.10668,-117.80298,1,1,1,1,1,1,1,1,1,1,1,2,3,3,4,5,6,6
CA,San Fernando,34.282047,-118.439938,0,0,0,1,1,1,1,2,3,3,#N/A,#N/A,1,1,1,5,5,6
CA,San Pedro,33.73787,-118.28461,1,1,1,1,1,1,2,2,4,5,8,9,10,11,14,14,19,25
CA,South El Monte,34.04644,-118.04326,0,0,1,1,1,1,1,1,3,4,#N/A,#N/A,#N/A,#N/A,1,#N/A,#N/A,1-4
CA,South Whittier,33.937414,-118.031273,0,0,0,1,1,1,2,2,3,4,3,5,5,5,7,8,9,11
CA,Stevenson Ranch,34.39001,-118.57889,0,0,1,1,1,1,2,2,2,3,1,1,1,1,1,1,5,6
CA,Sylmar,34.3102,-118.45308,0,0,1,1,1,1,1,1,1,2,4,8,15,18,25,30,35,42
CA,Tujunga,34.25183,-118.29097,0,0,1,1,1,1,1,1,1,2,2,2,3,4,5,5,5,7
CA,University Park,34.02819,-118.28397,0,0,1,1,1,1,1,1,4,6,4,5,5,6,12,14,15,16
CA,Van Nuys,34.18439,-118.44652,0,0,1,1,2,2,4,4,4,4,4,6,7,10,13,17,22,26
CA,Vermont Knolls,33.927793,-118.289294,0,0,1,1,1,1,1,1,1,3,1,1,1,1,1,5,7,7
CA,West Adams,34.02798,-118.35314,1,1,1,1,2,1,1,3,4,6,6,7,7,9,12,14,15,16
CA,West Vernon,34.003674,-118.3250139,1,1,1,1,2,2,2,4,5,6,6,8,8,9,13,15,17,22
CA,Winnetka,34.205025,-118.572276,0,0,0,1,1,1,1,2,3,5,3,8,9,9,10,11,15,18
CA,Silver Lake,34.087114,-118.270688,0,0,0,0,3,3,4,5,6,11,12,#N/A,16,18,20,#N/A,#N/A,#N/A
CA,Del Ray,33.985995,-118.425083,0,0,0,0,2,2,2,3,5,#N/A,#N/A,#N/A,#N/A,#N/A,#N/A,#N/A,#N/A,#N/A
CA,La Canada Flintridge,34.207554,-118.200643,0,0,0,0,1,1,2,2,3,6,5,7,7,8,8,8,8,9
CA,Sun Valley,34.228056,-118.381256,0,0,0,0,1,1,2,2,2,2,3,5,6,6,8,9,10,11
CA,Sunland,34.257221,-118.282433,0,0,0,0,1,1,1,1,1,1,#N/A,1,1,1,5,8,9,10
CA,Cerritos,33.858266,-118.064606,0,0,0,0,1,2,2,2,2,2,1,1,4,5,6,8,10,11
CA,Vermont Central,34.051259,-118.291691,0,0,0,0,1,1,1,#N/A,#N/A,#N/A,#N/A,#N/A,#N/A,#N/A,#N/A,#N/A,#N/A,#N/A
CA,Vernon Central,34.003973,-118.256502,0,0,0,0,1,1,1,1,1,1,3,3,3,4,5,5,7,8
CA,West Covina,34.068789,-117.939134,0,0,0,0,1,1,1,1,2,4,5,5,6,7,7,7,7,8
CA,La Verne,34.100998,-117.768361,0,0,0,0,1,2,2,2,2,2,1,1,1,2,2,2,2,2
CA,Westlake,34.146574,-118.807287,0,0,0,0,1,1,1,1,1,1,1,2,5,7,10,13,20,23
CA,East Hollywood,34.091212,-118.29364,0,0,0,0,0,1,1,1,1,2,3,5,6,10,13,12,12,14
CA,South Gate,33.954784,-118.211751,0,0,0,0,0,1,1,1,2,4,4,11,12,14,19,25,30,35
CA,Los Feliz,34.106239,-118.285284,0,0,0,0,0,1,2,2,3,5,6,5,8,11,13,14,16,19
CA,Glendora,34.135926,-117.865647,0,0,0,0,0,1,1,1,2,2,4,4,6,6,7,7,7,10
CA,Temple,34.107369,-118.058126,0,0,0,0,0,1,1,1,#N/A,#N/A,#N/A,#N/A,#N/A,#N/A,#N/A,#N/A,#N/A,#N/A
CA,Paramount,33.889391,-118.160065,0,0,0,0,0,1,2,2,3,4,5,5,6,7,8,10,13,17
CA,Canoga Park,34.20833,-118.605961,0,0,0,0,0,1,2,2,2,3,2,3,3,4,7,10,16,20
CA,Bellflower,33.881738,-118.117111,0,0,0,0,0,1,3,3,7,8,10,12,14,17,20,23,24,26
CA,Athens,33.920014,-118.28127,0,0,0,0,0,1,1,1,1,3,#N/A,#N/A,#N/A,#N/A,#N/A,#N/A,#N/A,#N/A
CA,Ranchos Palos Verdes,33.745103,-118.387141,0,0,0,0,0,1,1,3,5,#N/A,#N/A,#N/A,#N/A,#N/A,#N/A,#N/A,#N/A,#N/A
CA,Wilmington,33.785925,-118.264561,0,0,0,0,0,1,3,4,4,5,5,7,10,10,12,13,13,16
CA,Duarte,34.139665,-117.977588,0,0,0,0,0,0,1,1,1,2,1,1,1,1,1,1,1,1-4
CA,South Park,34.041835,-118.264455,0,0,0,0,0,0,1,1,1,2,3,4,4,4,5,11,12,15
CA,Palmdale,34.57963,-118.116545,0,0,0,0,0,0,1,2,2,2,4,6,7,9,14,18,20,27
CA,Agoura Hills,34.153686,-118.762795,0,0,0,0,0,0,1,3,3,5,6,9,9,9,11,10,14,16
CA,Cloverdale/Cochran,34.050876,-118.350618,0,0,0,0,0,0,1,2,3,3,1,1,#N/A,#N/A,#N/A,5,5,8
CA,Lincoln Heights,34.073436,-118.211861,0,0,0,0,0,0,1,1,#N/A,1,1,1,2,2,4,5,6,6
CA,Century Palms/Cove,33.924429,-118.265202,0,0,0,0,0,0,1,1,3,3,3,5,8,8,10,11,11,13
CA,Compton,33.896092,-118.222153,0,0,0,0,0,0,1,1,2,5,7,9,11,13,16,19,24,26
CA,Hyde Park,33.980675,-118.330588,0,0,0,0,0,0,1,1,1,1,2,2,4,6,7,8,10,10
CA,Exposition Park,34.015063,-118.285995,0,0,0,0,0,0,1,1,1,2,2,4,4,4,7,8,13,17
CA,Florence,33.974494,-118.248172,0,0,0,0,0,0,1,1,4,7,#N/A,#N/A,#N/A,#N/A,#N/A,#N/A,#N/A,#N/A
CA,Wilshire Center,34.065136,-118.300512,0,0,0,0,0,0,1,1,2,2,4,4,5,8,8,12,15,17
CA,Vermont Vista,33.94556,-118.282369,0,0,0,0,0,0,0,3,3,5,2,3,5,5,6,7,7,8
CA,Mt Washington,34.104587,-118.214422,0,0,0,0,0,0,0,1,2,#N/A,#N/A,#N/A,#N/A,#N/A,#N/A,#N/A,#N/A,#N/A
CA,Claremont,34.096716,-117.719884,0,0,0,0,0,0,0,1,1,1,1,1,1,1,2,3,3,4
CA,San Gabriel,34.095955,-118.104713,0,0,0,0,0,0,0,1,1,3,5,6,6,6,6,6,7,7
CA,Highland Park,34.115533,-118.184383,0,0,0,0,0,0,0,1,2,3,5,6,8,9,9,9,10,11
CA,Harvard Heights,34.04233,-118.304104,0,0,0,0,0,0,0,1,1,2,1,1,1,1,1,5,6,8
CA,Harbor Gateway,33.869197,-118.287594,0,0,0,0,0,0,0,1,2,3,4,4,4,6,9,9,11,13
CA,Porter Ranch,34.282083,-118.551662,0,0,0,0,0,0,0,1,1,2,2,3,6,6,8,8,12,12
CA,La Puente,34.020472,-117.94932,0,0,0,0,0,0,0,1,#N/A,1,1,2,3,3,3,6,7,8
CA,Pico Rivera,33.983051,-118.097071,0,0,0,0,0,0,0,1,1,2,2,5,5,6,9,14,15,17
CA,Pico,34.377466,-118.611968,0,0,0,0,0,0,0,1,2,5,#N/A,#N/A,#N/A,#N/A,#N/A,#N/A,#N/A,#N/A
CA,Downey,33.939975,-118.133393,0,0,0,0,0,0,0,1,5,10,12,18,19,25,31,37,43,47
CA,Wholesale District,34.042055,-118.232632,0,0,0,0,0,0,0,1,4,6,8,11,12,10,10,10,12,13
CA,Willowbrook,33.916421,-118.254544,0,0,0,0,0,0,0,1,1,1,1,1,1,2,2,5,6,8
CA,Norwalk,33.902323,-118.082611,0,0,0,0,0,0,0,1,2,9,9,12,12,15,21,21,26,30
CA,Canyon Country,34.423629,-118.47206,0,0,0,0,0,0,0,1,1,1,1,1,1,1,1,1,1,5
CA,Bell Gardens,33.965365,-118.151618,0,0,0,0,0,0,0,0,3,3,1,1,1,2,4,5,5,8
CA,Temple City,34.106729,-118.061044,0,0,0,0,0,0,0,0,3,6,#N/A,1,2,1,1,1,1,3
CA,Crenshaw District,34.018292,-118.340259,0,0,0,0,0,0,0,0,2,2,1,1,1,1,1,5,7,7
CA,Valinda,34.045316,-117.943064,0,0,0,0,0,0,0,0,1,1,1,1,1,1,1,1,1,1-4
CA,Panorama City,34.227717,-118.442481,0,0,0,0,0,0,0,0,1,4,4,4,6,7,7,11,16,19
CA,Watts,33.938769,-118.238261,0,0,0,0,0,0,0,0,1,1,1,1,2,2,7,7,11,12
CA,Pomona,34.05519,-117.75004,0,0,0,0,0,0,0,0,1,3,4,4,4,5,10,13,15,22
CA,Arleta,34.250676,-118.433973,0,0,0,0,0,0,0,0,1,2,2,4,5,5,7,7,7,10
CA,Del Rey,33.986206,-118.424955,0,0,0,0,0,0,0,0,0,9,9,10,12,14,16,17,20,22
CA,Rancho Palos Verdes,33.744701,-118.387211,0,0,0,0,0,0,0,0,0,6,7,8,8,10,13,16,20,22
CA,Mt. Washington,34.099337,-118.220394,0,0,0,0,0,0,0,0,0,3,#N/A,1,1,1,1,1,1,6
CA,Hacienda Heights,33.992976,-117.968713,0,0,0,0,0,0,0,0,0,2,2,2,2,2,5,8,12,12
CA,Monrovia,34.144288,-118.001607,0,0,0,0,0,0,0,0,0,2,4,4,4,4,5,7,7,8
CA,Leimert Park,34.0107,-118.323365,0,0,0,0,0,0,0,0,0,2,1,1,1,1,1,7,10,12
CA,Bell,33.97803,-118.187027,0,0,0,0,0,0,0,0,0,2,4,5,6,11,12,12,14,14
CA,Glassell Park,34.109259,-118.233421,0,0,0,0,0,0,0,0,0,2,4,7,7,8,11,16,18,22
CA,Chatsworth,34.250522,-118.614264,0,0,0,0,0,0,0,0,0,1,3,4,8,10,14,18,20,19
CA,Pacoima,34.27651,-118.410417,0,0,0,0,0,0,0,0,0,1,2,3,3,4,5,7,8,16
CA,Azusa,34.133571,-117.907475,0,0,0,0,0,0,0,0,0,1,1,1,2,3,5,7,8,8
CA,West Whittier/Los Nietos,33.980102,-118.067987,0,0,0,0,0,0,0,0,0,1,#N/A,#N/A,#N/A,#N/A,#N/A,1,2,3
CA,Montebello,34.016471,-118.113802,0,0,0,0,0,0,0,0,0,1,2,3,4,4,5,7,9,10
CA,Maywood,33.987143,-118.185634,0,0,0,0,0,0,0,0,0,1,1,2,4,5,6,8,10,10
CA,Little Bangladesh,34.069054,-118.295452,0,0,0,0,0,0,0,0,0,1,2,2,4,5,5,8,9,11
CA,Harbor City,33.790942,-118.297527,0,0,0,0,0,0,0,0,0,1,1,1,2,4,5,7,8,15
CA,North Hills,34.23565,-118.485061,0,0,0,0,0,0,0,0,0,1,1,2,6,7,9,11,13,16
CA,Beverly Crest,34.101357,-118.41628,0,0,0,0,0,0,0,0,0,0,14,17,18,19,20,22,23,23
CA,Valley Village,34.163267,-118.384267,0,0,0,0,0,0,0,0,0,0,13,14,18,19,21,23,23,27
CA,Palos Verdes Estates,33.800671,-118.390089,0,0,0,0,0,0,0,0,0,0,12,14,14,14,14,15,18,19
CA,Mid-city,34.041731,-118.328626,0,0,0,0,0,0,0,0,0,0,8,8,9,10,11,13,14,16
CA,Carthay,34.055953,-118.368061,0,0,0,0,0,0,0,0,0,0,7,9,13,15,16,17,17,24
CA,Bel-Air,34.100344,-118.459103,0,0,0,0,0,0,0,0,0,0,6,#N/A,9,9,11,12,12,13
CA,South Carthay,34.056164,-118.373422,0,0,0,0,0,0,0,0,0,0,5,5,6,8,8,9,14,17
CA,Athens-Westmont,33.923974,-118.300783,0,0,0,0,0,0,0,0,0,0,5,7,7,7,11,13,15,17
CA,West Carson,33.821774,-118.292792,0,0,0,0,0,0,0,0,0,0,5,6,7,8,9,11,11,15
CA,Temple-Beaudry,34.064398,-118.257002,0,0,0,0,0,0,0,0,0,0,5,5,5,8,10,11,12,15
CA,Pico-Union,34.044434,-118.28978,0,0,0,0,0,0,0,0,0,0,5,4,4,5,7,9,9,13
CA,Florence-Firestone,33.967096,-118.243123,0,0,0,0,0,0,0,0,0,0,3,6,6,7,12,19,23,26
CA,Central,34.068637,-118.322807,0,0,0,0,0,0,0,0,0,0,2,3,4,6,11,13,16,18
CA,Harvard Park,33.983705,-118.30433,0,0,0,0,0,0,0,0,0,0,1,2,2,3,4,4,5,8
CA,Rowland Heights,33.97623,-117.905228,0,0,0,0,0,0,0,0,0,0,1,1,3,3,3,5,6,7
CA,San Marino,34.121609,-118.106368,0,0,0,0,0,0,0,0,0,0,1,1,1,1,1,1,1,1-4
CA,Hermosa Beach,33.862341,-118.39959,0,0,0,0,0,0,0,0,0,0,1,1,6,7,9,12,15,17
CA,Marina Peninsula,33.979767,-118.465679,0,0,0,0,0,0,0,0,0,0,1,1,1,1,1,6,6,6
CA,Shadow Hills,34.257538,-118.354926,0,0,0,0,0,0,0,0,0,0,1,1,1,1,1,1,5,5
CA,Marina del Rey,33.980518,-118.451989,0,0,0,0,0,0,0,0,0,0,1,1,1,1,5,5,5,5
CA,Signal Hill,33.804516,-118.167693,0,0,0,0,0,0,0,0,0,0,1,1,1,1,1,1,1,1-4
CA,Elysian Park,34.084241,-118.236818,0,0,0,0,0,0,0,0,0,0,1,1,1,1,1,1,1,5
CA,Elysian Valley,34.090619,-118.249761,0,0,0,0,0,0,0,0,0,0,1,1,1,1,1,1,1,1-4
CA,Cudahy,33.960835,-118.185787,0,0,0,0,0,0,0,0,0,0,1,1,1,1,1,8,9,10
CA,Mission Hills,34.272225,-118.468854,0,0,0,0,0,0,0,0,0,0,1,5,5,6,6,6,6,8
CA,Cheviot Hills,34.040341,-118.404236,0,0,0,0,0,0,0,0,0,0,1,1,1,5,6,8,9,10
CA,Alsace,33.978779,-118.415636,0,0,0,0,0,0,0,0,0,0,1,1,1,1,1,1,1,1-4
CA,Mount Washington,34.099251,-118.220424,0,0,0,0,0,0,0,0,0,0,1,#N/A,#N/A,#N/A,#N/A,#N/A,#N/A,#N/A
CA,La Habra Heights,33.960792,-117.950388,0,0,0,0,0,0,0,0,0,0,1,#N/A,#N/A,#N/A,#N/A,#N/A,#N/A,#N/A
CA,Thai Town,34.101847,-118.303536,0,0,0,0,0,0,0,0,0,0,1,1,1,1,1,1,1,1-4
CA,Toluca Lake,34.150272,-118.355231,0,0,0,0,0,0,0,0,0,0,1,1,1,1,1,1,1,5
CA,Adams-Normandie,34.034554,-118.2994,0,0,0,0,0,0,0,0,0,0,1,1,1,1,5,8,8,12
CA,Country Club Park,34.050499,-118.321101,0,0,0,0,0,0,0,0,0,0,1,1,1,1,5,8,9,9
CA,La Rambla,33.732776,-118.295677,0,0,0,0,0,0,0,0,0,0,1,1,1,1,1,1,1,1-4
CA,Valencia,34.456133,-118.571638,0,0,0,0,0,0,0,0,0,0,1,1,1,1,1,1,1,1-4
CA,Gramercy Place,33.890605,-118.313509,0,0,0,0,0,0,0,0,0,0,1,1,1,1,1,1,5,6
CA,Lafayette Square,34.043054,-118.331987,0,0,0,0,0,0,0,0,0,0,1,1,1,1,1,1,1,1-4
CA,Vermont Square,34.003673,-118.300288,0,0,0,0,0,0,0,0,0,0,1,1,1,1,1,1,5,5
CA,Lakeview Terrace,34.276339,-118.360458,0,0,0,0,0,0,0,0,0,0,1,1,#N/A,#N/A,#N/A,#N/A,#N/A,#N/A
CA,Green Meadows,33.955517,-118.269355,0,0,0,0,0,0,0,0,0,0,1,1,1,1,7,8,8,9
CA,Victoria Park,34.046987,-118.331398,0,0,0,0,0,0,0,0,0,0,1,1,1,1,1,1,6,7
CA,Artesia,33.865825,-118.082333,0,0,0,0,0,0,0,0,0,0,1,1,1,1,1,1,1,1-4
CA,Playa Del Rey,33.956153,-118.441992,0,0,0,0,0,0,0,0,0,0,1,1,1,1,1,1,1,1-4
CA,Lennox,33.938169,-118.352684,0,0,0,0,0,0,0,0,0,0,1,1,5,7,8,8,9,10
CA,West LA,34.041101,-118.442528,0,0,0,0,0,0,0,0,0,0,1,1,1,1,1,1,1,11
CA,East Whittier,33.924579,-117.988325,0,0,0,0,0,0,0,0,0,0,1,1,1,1,1,1,1,1-4
CA,Rancho Park,34.045474,-118.420531,0,0,0,0,0,0,0,0,0,0,1,1,1,1,1,1,1,5
CA,Hawaiian Gardens,33.831459,-118.072033,0,0,0,0,0,0,0,0,0,0,1,1,1,1,1,1,1,1-4
CA,Reseda Ranch,34.216002,-118.535589,0,0,0,0,0,0,0,0,0,0,1,1,1,1,1,1,1,1-4
CA,Reynier Village,34.036741,-118.385549,0,0,0,0,0,0,0,0,0,0,1,1,1,1,1,1,1,1-4
CA,Rolling Hills Estates,33.787264,-118.358821,0,0,0,0,0,0,0,0,0,0,1,1,1,1,1,1,5,5
CA,Manchester Square,33.899603,-118.297765,0,0,0,0,0,0,0,0,0,0,1,1,1,1,1,1,1,1-4
CA,Mandeville Canyon,34.096502,-118.502341,0,0,0,0,0,0,0,0,0,0,1,1,1,1,1,1,1,1-4
CA,Wiseburn,33.917985,-118.384138,0,0,0,0,0,0,0,0,0,0,1,1,1,1,1,1,1,1-4
CA,Malibu,34.026037,-118.780997,0,0,0,0,0,0,0,0,0,0,1,1,1,1,1,1,5,7
CA,Silverlake,34.087185,-118.270602,0,0,0,0,0,0,0,0,0,0,0,14,#N/A,#N/A,#N/A,25,25,38
CA,Bel Air,34.100202,-118.459275,0,0,0,0,0,0,0,0,0,0,0,8,#N/A,#N/A,#N/A,#N/A,#N/A,#N/A
CA,Huntington Park,33.981671,-118.225173,0,0,0,0,0,0,0,0,0,0,0,2,2,4,11,13,15,16
CA,Rosemead,34.080419,-118.073798,0,0,0,0,0,0,0,0,0,0,0,1,2,2,2,3,3,5
CA,El Sereno,34.073651,-118.178684,0,0,0,0,0,0,0,0,0,0,0,1,3,3,3,4,9,12
CA,Atwater Village,34.11741,-118.261499,0,0,0,0,0,0,0,0,0,0,0,1,1,1,1,1,1,1-4
CA,Lake View Terrace,34.276347,-118.361147,0,0,0,0,0,0,0,0,0,0,0,0,1,1,5,6,8,9
CA,Palisades Highlands,34.045633,-118.551646,0,0,0,0,0,0,0,0,0,0,0,0,1,1,1,1,1,1-4
CA,Ladera Heights,33.987768,-118.370325,0,0,0,0,0,0,0,0,0,0,0,0,1,1,5,5,6,7
CA,Quartz Hill,34.645567,-118.217928,0,0,0,0,0,0,0,0,0,0,0,0,1,1,1,1,1,1-4
CA,Rancho Dominguez,33.850763,-118.224939,0,0,0,0,0,0,0,0,0,0,0,0,1,1,1,1,1,1-4
CA,Little Tokyo,34.052425,-118.239815,0,0,0,0,0,0,0,0,0,0,0,0,1,1,1,1,1,1-4
CA,View Heights,33.984464,-118.347686,0,0,0,0,0,0,0,0,0,0,0,0,1,1,1,1,1,1-4
CA,El Monte,34.068456,-118.028846,0,0,0,0,0,0,0,0,0,0,0,0,0,1,4,6,7,10
CA,Longwood,33.866975,-118.20371,0,0,0,0,0,0,0,0,0,0,0,0,0,1,1,1,1,1-4
CA,North Whittier,34.020574,-118.034698,0,0,0,0,0,0,0,0,0,0,0,0,0,1,1,1,1,1-4
CA,Regent Square,33.965144,-118.365601,0,0,0,0,0,0,0,0,0,0,0,0,0,1,1,1,1,1-4
CA,Del Aire,33.916074,-118.36949,0,0,0,0,0,0,0,0,0,0,0,0,0,1,1,1,1,1-4
CA,Commerce,34.000485,-118.159679,0,0,0,0,0,0,0,0,0,0,0,0,0,1,1,1,#N/A,#N/A
CA,Cadillac-Corning,34.039247,-118.380754,0,0,0,0,0,0,0,0,0,0,0,0,0,1,1,1,1,1-4
CA,Baldwin Park,34.08515,-117.960596,0,0,0,0,0,0,0,0,0,0,0,0,0,0,2,3,5,7
CA,Little Armenia,34.098336,-118.300499,0,0,0,0,0,0,0,0,0,0,0,0,0,0,1,1,1,9
CA,Sierra Madre,34.161968,-118.052617,0,0,0,0,0,0,0,0,0,0,0,0,0,0,1,1,1,1-4
CA,Sun Village,34.557956,-117.95803,0,0,0,0,0,0,0,0,0,0,0,0,0,0,1,1,1,1-4
CA,East La Mirada,33.924258,-117.988754,0,0,0,0,0,0,0,0,0,0,0,0,0,0,1,1,1,1-4
CA,Westlake Village,34.146209,-118.80574,0,0,0,0,0,0,0,0,0,0,0,0,0,0,1,1,1,1-4
CA,Chinatown,34.062573,-118.238166,0,0,0,0,0,0,0,0,0,0,0,0,0,0,1,1,1,1-4
CA,Santa Fe Springs,33.947517,-118.085135,0,0,0,0,0,0,0,0,0,0,0,0,0,0,1,1,1,1-4
CA,Athens Village,33.919979,-118.281141,0,0,0,0,0,0,0,0,0,0,0,0,0,0,1,1,1,1-4
CA,View Park/Windsor Hills,33.999521,-118.343259,0,0,0,0,0,0,0,0,0,0,0,0,0,0,0,7,7,8
CA,South San Gabriel,34.049509,-118.094801,0,0,0,0,0,0,0,0,0,0,0,0,0,0,0,5,5,5
CA,Historic Filipinotown,34.070368,-118.268145,0,0,0,0,0,0,0,0,0,0,0,0,0,0,0,5,6,6
CA,Northeast San Gabriel,34.096235,-118.105101,0,0,0,0,0,0,0,0,0,0,0,0,0,0,0,1,1,1-4
CA,Twin Lakes/Oat Mountain,34.306287,-118.601403,0,0,0,0,0,0,0,0,0,0,0,0,0,0,0,1,1,1-4
CA,Rosewood,33.904631,-118.248488,0,0,0,0,0,0,0,0,0,0,0,0,0,0,0,1,1,1-4
CA,Faircrest Heights,34.047691,-118.371019,0,0,0,0,0,0,0,0,0,0,0,0,0,0,0,1,1,1-4
CA,El Camino Village,33.889634,-118.330864,0,0,0,0,0,0,0,0,0,0,0,0,0,0,0,1,1,1-4
CA,East Rancho Dominguez,33.896095,-118.193491,0,0,0,0,0,0,0,0,0,0,0,0,0,0,0,1,1,1-4
CA,West Antelope Valley,34.754225,-118.252196,0,0,0,0,0,0,0,0,0,0,0,0,0,0,0,1,1,1-4
CA,West Puente Valley,34.056302,-117.968588,0,0,0,0,0,0,0,0,0,0,0,0,0,0,0,1,1,1-4
CA,Covina (Charter Oak),34.099336,-117.845993,0,0,0,0,0,0,0,0,0,0,0,0,0,0,0,1,1,1-4
CA,Saugus,34.41366,-118.540435,0,0,0,0,0,0,0,0,0,0,0,0,0,0,0,0,1,1-4
CA,Lake Los Angeles,34.612285,-117.827938,0,0,0,0,0,0,0,0,0,0,0,0,0,0,0,0,1,1-4
CA,La Crescenta-Montrose,34.228777,-118.235096,0,0,0,0,0,0,0,0,0,0,0,0,0,0,0,0,1,1-4
CA,Acton,34.470113,-118.196649,0,0,0,0,0,0,0,0,0,0,0,0,0,0,0,0,1,1-4
CA,Walnut Park,33.968871,-118.222326,0,0,0,0,0,0,0,0,0,0,0,0,0,0,0,0,1,1-4